[{"location":{"lat":40.8427468,"lng":-73.94260059999999,"address2":"701+West+168th+Street,+New+York,+NY"},"address2":"701+West+168th+Street,+New+York,+NY","address":"701 West 168th Street, New York, NY","name":"A NEW WAY OF LIVING","building":"Columbia Presbyterian Hospital","day":"Wednesdays","startTime":"12:00 PM","endTime":"1:00 PM","meetingType":"C = Closed Discussion meeting","specialInterest":"Living Sober","notes":"Check with Security for Room # T Last Thu, Living Sober & Anniv Last Fri. No meetings on public holidays","access":["Wheelchair access"]},{"location":{"lat":40.8427468,"lng":-73.94260059999999,"address2":"701+West+168th+Street,+New+York,+NY"},"address2":"701+West+168th+Street,+New+York,+NY","address":"701 West 168th Street, New York, NY","name":"A NEW WAY OF LIVING","building":"Columbia Presbyterian Hospital","day":"Wednesdays","startTime":"12:00 PM","endTime":"1:00 PM","meetingType":"C = Closed Discussion meeting","specialInterest":"Living Sober","notes":"Check with Security for Room # T Last Thu, Living Sober & Anniv Last Fri. No meetings on public holidays","access":["Wheelchair access"]},{"location":{"lat":40.8427468,"lng":-73.94260059999999,"address2":"701+West+168th+Street,+New+York,+NY"},"address2":"701+West+168th+Street,+New+York,+NY","address":"701 West 168th Street, New York, NY","name":"A NEW WAY OF LIVING","building":"Columbia Presbyterian Hospital","day":"Wednesdays","startTime":"12:00 PM","endTime":"1:00 PM","meetingType":"C = Closed Discussion meeting","specialInterest":"Living Sober","notes":"Check with Security for Room # T Last Thu, Living Sober & Anniv Last Fri. No meetings on public holidays","access":["Wheelchair access"]},{"location":{"lat":40.8427468,"lng":-73.94260059999999,"address2":"701+West+168th+Street,+New+York,+NY"},"address2":"701+West+168th+Street,+New+York,+NY","address":"701 West 168th Street, New York, NY","name":"A NEW WAY OF LIVING","building":"Columbia Presbyterian Hospital","day":"Wednesdays","startTime":"12:00 PM","endTime":"1:00 PM","meetingType":"C = Closed Discussion meeting","specialInterest":"Living Sober","notes":"Check with Security for Room # T Last Thu, Living Sober & Anniv Last Fri. No meetings on public holidays","access":["Wheelchair access"]},{"location":{"lat":40.8427468,"lng":-73.94260059999999,"address2":"701+West+168th+Street,+New+York,+NY"},"address2":"701+West+168th+Street,+New+York,+NY","address":"701 West 168th Street, New York, NY","name":"A NEW WAY OF LIVING","building":"Columbia Presbyterian Hospital","day":"Wednesdays","startTime":"12:00 PM","endTime":"1:00 PM","meetingType":"C = Closed Discussion meeting","specialInterest":"Living Sober","notes":"Check with Security for Room # T Last Thu, Living Sober & Anniv Last Fri. No meetings on public holidays","access":["Wheelchair access"]},{"location":{"lat":40.849394,"lng":-73.93841119999999,"address2":"715+West+179th+Street,+New+York,+NY"},"address2":"715+West+179th+Street,+New+York,+NY","address":"715 West 179th Street, New York, NY","name":"BRIDGE TO SOBRIETY","building":"Holy Rood Church","day":"Fridays","startTime":"10:00 AM","endTime":"11:00 AM","meetingType":"OD = Open Discussion meeting","specialInterest":"Living Sober","notes":"Living Sober Last Tuesday, T Last Wednesday","access":[""]},{"location":{"lat":40.849394,"lng":-73.93841119999999,"address2":"715+West+179th+Street,+New+York,+NY"},"address2":"715+West+179th+Street,+New+York,+NY","address":"715 West 179th Street, New York, NY","name":"BRIDGE TO SOBRIETY","building":"Holy Rood Church","day":"Fridays","startTime":"10:00 AM","endTime":"11:00 AM","meetingType":"OD = Open Discussion meeting","specialInterest":"Living Sober","notes":"Living Sober Last Tuesday, T Last Wednesday","access":[""]},{"location":{"lat":40.849394,"lng":-73.93841119999999,"address2":"715+West+179th+Street,+New+York,+NY"},"address2":"715+West+179th+Street,+New+York,+NY","address":"715 West 179th Street, New York, NY","name":"BRIDGE TO SOBRIETY","building":"Holy Rood Church","day":"Fridays","startTime":"10:00 AM","endTime":"11:00 AM","meetingType":"OD = Open Discussion meeting","specialInterest":"Living Sober","notes":"Living Sober Last Tuesday, T Last Wednesday","access":[""]},{"location":{"lat":40.849394,"lng":-73.93841119999999,"address2":"715+West+179th+Street,+New+York,+NY"},"address2":"715+West+179th+Street,+New+York,+NY","address":"715 West 179th Street, New York, NY","name":"BRIDGE TO SOBRIETY","building":"Holy Rood Church","day":"Fridays","startTime":"10:00 AM","endTime":"11:00 AM","meetingType":"OD = Open Discussion meeting","specialInterest":"Living Sober","notes":"Living Sober Last Tuesday, T Last Wednesday","access":[""]},{"location":{"lat":40.849394,"lng":-73.93841119999999,"address2":"715+West+179th+Street,+New+York,+NY"},"address2":"715+West+179th+Street,+New+York,+NY","address":"715 West 179th Street, New York, NY","name":"BRIDGE TO SOBRIETY","building":"Holy Rood Church","day":"Fridays","startTime":"10:00 AM","endTime":"11:00 AM","meetingType":"OD = Open Discussion meeting","specialInterest":"Living Sober","notes":"Living Sober Last Tuesday, T Last Wednesday","access":[""]},{"location":{"lat":40.849394,"lng":-73.93841119999999,"address2":"715+West+179th+Street,+New+York,+NY"},"address2":"715+West+179th+Street,+New+York,+NY","address":"715 West 179th Street, New York, NY","name":"BRIDGE TO SOBRIETY","building":"Holy Rood Church","day":"Sundays","startTime":"10:00 AM","endTime":"11:00 AM","meetingType":"S = Step meeting","notes":"10th Step","access":["Wheelchair access"]},{"location":{"lat":40.8621364,"lng":-73.9189224,"address2":"431+West+204th+Street,+New+York,+NY"},"address2":"431+West+204th+Street,+New+York,+NY","address":"431 West 204th Street, New York, NY","name":"DYCKMAN","building":"St. Jude's School","day":"Wednesdays","startTime":"7:00 PM","endTime":"8:00 PM","meetingType":"S = Step meeting","notes":"BB 1st & T Last Wed.","access":[""]},{"location":{"lat":40.8621364,"lng":-73.9189224,"address2":"431+West+204th+Street,+New+York,+NY"},"address2":"431+West+204th+Street,+New+York,+NY","address":"431 West 204th Street, New York, NY","name":"DYCKMAN","building":"St. Jude's School","day":"Wednesdays","startTime":"7:00 PM","endTime":"8:00 PM","meetingType":"S = Step meeting","notes":"BB 1st & T Last Wed.","access":[""]},{"location":{"lat":40.8321259,"lng":-73.9452508,"address2":"550+West+155th+Street,+New+York,+NY"},"address2":"550+West+155th+Street,+New+York,+NY","address":"550 West 155th Street, New York, NY","name":"FOUND","building":"Church of the Intercession","day":"Saturdays","startTime":"12:30 PM","endTime":"2:00 PM","meetingType":"C = Closed Discussion meeting","specialInterest":"Gay Men","notes":"Men's meeting & Gay men's focus. All are welcome. Anniversary last Sat., 1st Sat.: S followed by Bus. Mtg.","access":[""]},{"location":{"lat":40.833379,"lng":-73.94459800000001,"address2":"557+West+156th+Street,+New+York,+NY"},"address2":"557+West+156th+Street,+New+York,+NY","address":"557 West 156th Street, New York, NY","name":"GRUPO DESPERTAR","building":"Casita Esperanza","day":"Fridays","startTime":"8:00 PM","endTime":"10:00 PM","meetingType":"OD = Open Discussion meeting","notes":"Spanish Speaking Meetings.","access":["Wheelchair access"]},{"location":{"lat":40.833379,"lng":-73.94459800000001,"address2":"557+West+156th+Street,+New+York,+NY"},"address2":"557+West+156th+Street,+New+York,+NY","address":"557 West 156th Street, New York, NY","name":"GRUPO DESPERTAR","building":"Casita Esperanza","day":"Fridays","startTime":"8:00 PM","endTime":"10:00 PM","meetingType":"OD = Open Discussion meeting","notes":"Spanish Speaking Meetings.","access":["Wheelchair access"]},{"location":{"lat":40.862594,"lng":-73.926186,"address2":"35+Thayer+Street,+New+York,+NY"},"address2":"35+Thayer+Street,+New+York,+NY","address":"35 Thayer Street, New York, NY","name":"GRUPO LA FLAMA PANAMERICANA","building":"","day":"Saturdays","startTime":"8:00 PM","endTime":"10:00 PM","meetingType":"O = Open meeting","notes":"Spanish speaking meetings.","access":["Wheelchair access"]},{"location":{"lat":40.862594,"lng":-73.926186,"address2":"35+Thayer+Street,+New+York,+NY"},"address2":"35+Thayer+Street,+New+York,+NY","address":"35 Thayer Street, New York, NY","name":"GRUPO LA FLAMA PANAMERICANA","building":"","day":"Saturdays","startTime":"8:00 PM","endTime":"10:00 PM","meetingType":"O = Open meeting","notes":"Spanish speaking meetings.","access":["Wheelchair access"]},{"location":{"lat":40.862594,"lng":-73.926186,"address2":"35+Thayer+Street,+New+York,+NY"},"address2":"35+Thayer+Street,+New+York,+NY","address":"35 Thayer Street, New York, NY","name":"GRUPO LA FLAMA PANAMERICANA","building":"","day":"Saturdays","startTime":"8:00 PM","endTime":"10:00 PM","meetingType":"O = Open meeting","notes":"Spanish speaking meetings.","access":["Wheelchair access"]},{"location":{"lat":40.862594,"lng":-73.926186,"address2":"35+Thayer+Street,+New+York,+NY"},"address2":"35+Thayer+Street,+New+York,+NY","address":"35 Thayer Street, New York, NY","name":"GRUPO LA FLAMA PANAMERICANA","building":"","day":"Saturdays","startTime":"8:00 PM","endTime":"10:00 PM","meetingType":"O = Open meeting","notes":"Spanish speaking meetings.","access":["Wheelchair access"]},{"location":{"lat":40.849394,"lng":-73.93841119999999,"address2":"715+West+179th+Street,+New+York,+NY"},"address2":"715+West+179th+Street,+New+York,+NY","address":"715 West 179th Street, New York, NY","name":"GRUPO LIBERTAD","building":"Episcopal Holy Rood Church","day":"Tuesdays","startTime":"9:30 PM","endTime":"10:30 PM","meetingType":"C = Closed Discussion meeting","notes":"Spanish speaking meetings.","access":["Wheelchair access"]},{"location":{"lat":40.849394,"lng":-73.93841119999999,"address2":"715+West+179th+Street,+New+York,+NY"},"address2":"715+West+179th+Street,+New+York,+NY","address":"715 West 179th Street, New York, NY","name":"GRUPO LIBERTAD","building":"Episcopal Holy Rood Church","day":"Tuesdays","startTime":"9:30 PM","endTime":"10:30 PM","meetingType":"C = Closed Discussion meeting","notes":"Spanish speaking meetings.","access":["Wheelchair access"]},{"location":{"lat":40.849394,"lng":-73.93841119999999,"address2":"715+West+179th+Street,+New+York,+NY"},"address2":"715+West+179th+Street,+New+York,+NY","address":"715 West 179th Street, New York, NY","name":"GRUPO LIBERTAD","building":"Episcopal Holy Rood Church","day":"Tuesdays","startTime":"9:30 PM","endTime":"10:30 PM","meetingType":"C = Closed Discussion meeting","notes":"Spanish speaking meetings.","access":["Wheelchair access"]},{"location":{"lat":40.849394,"lng":-73.93841119999999,"address2":"715+West+179th+Street,+New+York,+NY"},"address2":"715+West+179th+Street,+New+York,+NY","address":"715 West 179th Street, New York, NY","name":"GRUPO LIBERTAD","building":"Episcopal Holy Rood Church","day":"Tuesdays","startTime":"9:30 PM","endTime":"10:30 PM","meetingType":"C = Closed Discussion meeting","notes":"Spanish speaking meetings.","access":["Wheelchair access"]},{"location":{"lat":40.8380556,"lng":-73.93891789999999,"address2":"502+West+165th+Street,+New+York,+NY"},"address2":"502+West+165th+Street,+New+York,+NY","address":"502 West 165th Street, New York, NY","name":"GRUPO RECUPERACION","building":"Church Santa Rosa de Lima","day":"Thursdays","startTime":"8:00 PM","endTime":"9:00 PM","meetingType":"O = Open meeting","notes":"Spanish speaking meetings.","access":[""]},{"location":{"lat":40.8380556,"lng":-73.93891789999999,"address2":"502+West+165th+Street,+New+York,+NY"},"address2":"502+West+165th+Street,+New+York,+NY","address":"502 West 165th Street, New York, NY","name":"GRUPO RECUPERACION","building":"Church Santa Rosa de Lima","day":"Thursdays","startTime":"8:00 PM","endTime":"9:00 PM","meetingType":"O = Open meeting","notes":"Spanish speaking meetings.","access":[""]},{"location":{"lat":40.8380556,"lng":-73.93891789999999,"address2":"502+West+165th+Street,+New+York,+NY"},"address2":"502+West+165th+Street,+New+York,+NY","address":"502 West 165th Street, New York, NY","name":"GRUPO RECUPERACION","building":"Church Santa Rosa de Lima","day":"Thursdays","startTime":"8:00 PM","endTime":"9:00 PM","meetingType":"O = Open meeting","notes":"Spanish speaking meetings.","access":[""]},{"location":{"lat":40.8638625,"lng":-73.9280718,"address2":"91+Arden+Street,+New+York,+NY"},"address2":"91+Arden+Street,+New+York,+NY","address":"91 Arden Street, New York, NY","name":"GRUPO UN NUEVO AMANECER","building":"Our Lady Queen of Martyrs","day":"Fridays","startTime":"8:00 PM","endTime":"9:00 PM","meetingType":"OD = Open Discussion meeting","notes":"Spanish Speaking Meetings.","access":[""]},{"location":{"lat":40.8638625,"lng":-73.9280718,"address2":"91+Arden+Street,+New+York,+NY"},"address2":"91+Arden+Street,+New+York,+NY","address":"91 Arden Street, New York, NY","name":"GRUPO UN NUEVO AMANECER","building":"Our Lady Queen of Martyrs","day":"Fridays","startTime":"8:00 PM","endTime":"9:00 PM","meetingType":"OD = Open Discussion meeting","notes":"Spanish Speaking Meetings.","access":[""]},{"location":{"lat":40.8666437,"lng":-73.9268712,"address2":"20+Cumming+Street,+New+York,+NY"},"address2":"20+Cumming+Street,+New+York,+NY","address":"20 Cumming Street, New York, NY","name":"HAPPY DESTINY","building":"Holy Trinity Episcopal Church","day":"Wednesdays","startTime":"7:30 PM","endTime":"8:30 PM","meetingType":"B = Beginners meeting","specialInterest":"Gay, Lesbian and Bisexual","notes":"LGBT All welcome. Sun: As Bill See it; Wed: Steps1-3 Sun.meeting in Sanctuary; Wed meeting in Auditorium","access":[""]},{"location":{"lat":40.8666437,"lng":-73.9268712,"address2":"20+Cumming+Street,+New+York,+NY"},"address2":"20+Cumming+Street,+New+York,+NY","address":"20 Cumming Street, New York, NY","name":"HAPPY DESTINY","building":"Holy Trinity Episcopal Church","day":"Wednesdays","startTime":"7:30 PM","endTime":"8:30 PM","meetingType":"B = Beginners meeting","specialInterest":"Gay, Lesbian and Bisexual","notes":"LGBT All welcome. Sun: As Bill See it; Wed: Steps1-3 Sun.meeting in Sanctuary; Wed meeting in Auditorium","access":[""]},{"location":{"lat":40.8660417,"lng":-73.9232711,"address2":"84+Vermilyea+Avenue,+New+York,+NY"},"address2":"84+Vermilyea+Avenue,+New+York,+NY","address":"84 Vermilyea Avenue, New York, NY","name":"INWOOD FORT TRYON","building":"Mount Washington Presbyterian Church","day":"Tuesdays","startTime":"12:30 PM","endTime":"1:30 PM","meetingType":"C = Closed Discussion meeting","notes":"Sat. Closed meeting rotating step/speaker/trad/anniversary In Dec. first two weeks will be Step meeting","access":[""]},{"location":{"lat":40.8660417,"lng":-73.9232711,"address2":"84+Vermilyea+Avenue,+New+York,+NY"},"address2":"84+Vermilyea+Avenue,+New+York,+NY","address":"84 Vermilyea Avenue, New York, NY","name":"INWOOD FORT TRYON","building":"Mount Washington Presbyterian Church","day":"Tuesdays","startTime":"12:30 PM","endTime":"1:30 PM","meetingType":"C = Closed Discussion meeting","notes":"Sat. Closed meeting rotating step/speaker/trad/anniversary In Dec. first two weeks will be Step meeting","access":[""]},{"location":{"lat":40.8660417,"lng":-73.9232711,"address2":"84+Vermilyea+Avenue,+New+York,+NY"},"address2":"84+Vermilyea+Avenue,+New+York,+NY","address":"84 Vermilyea Avenue, New York, NY","name":"INWOOD FORT TRYON","building":"Mount Washington Presbyterian Church","day":"Tuesdays","startTime":"12:30 PM","endTime":"1:30 PM","meetingType":"C = Closed Discussion meeting","notes":"Sat. Closed meeting rotating step/speaker/trad/anniversary In Dec. first two weeks will be Step meeting","access":[""]},{"location":{"lat":40.8692105,"lng":-73.9207583,"address2":"620+Isham+Street,+New+York,+NY"},"address2":"620+Isham+Street,+New+York,+NY","address":"620 Isham Street, New York, NY","name":"ISHAM PARK","building":"Church of the Good Shepherd","day":"Mondays","startTime":"8:00 PM","endTime":"9:00 PM","meetingType":"C = Closed Discussion meeting","notes":"Open Anniv. Last Mon.","access":[""]},{"location":{"lat":40.8342672,"lng":-73.94078800000001,"address2":"2005+Amsterdam+Avenue,+New+York,+NY"},"address2":"2005+Amsterdam+Avenue,+New+York,+NY","address":"2005 Amsterdam Avenue, New York, NY","name":"PROGRESS NOT PERFECTION","building":"COATHA Church on the Hill Senior Center","day":"Fridays","startTime":"7:30 PM","endTime":"8:30 PM","meetingType":"OD = Open Discussion meeting","notes":"Open Discussion 1st, 2nd, 4th,and 5th when applicable. OPEN meeting is 3rd Fridays","access":["Wheelchair access"]},{"location":{"lat":40.8560587,"lng":-73.93446569999999,"address2":"178+Bennett+Avenue,+New+York,+NY"},"address2":"178+Bennett+Avenue,+New+York,+NY","address":"178 Bennett Avenue, New York, NY","name":"THE MEN UPSTAIRS","building":"Our Saviour's Atonement Lutheran Church","day":"Mondays","startTime":"8:00 PM","endTime":"9:00 PM","meetingType":"C = Closed Discussion meeting","specialInterest":"Men","notes":"Men's Meeting","access":[""]},{"location":{"lat":40.8560587,"lng":-73.93446569999999,"address2":"178+Bennett+Avenue,+New+York,+NY"},"address2":"178+Bennett+Avenue,+New+York,+NY","address":"178 Bennett Avenue, New York, NY","name":"THE MISSING LINK","building":"Our Saviour's Atonement Church","day":"Fridays","startTime":"7:00 PM","endTime":"8:00 PM","meetingType":"BB = Big Book meeting","notes":"1st- Step, 2nd-OD, 3rd-Beg., 4th- BB, 5th- OD","access":[""]},{"location":{"lat":40.8638625,"lng":-73.9280718,"address2":"91+Arden+Street,+New+York,+NY"},"address2":"91+Arden+Street,+New+York,+NY","address":"91 Arden Street, New York, NY","name":"UPPER MANHATTAN","building":"Our Lady Queen of Martyrs","day":"Thursdays","startTime":"7:30 PM","endTime":"8:30 PM","meetingType":"OD = Open Discussion meeting","notes":"","access":[""]},{"location":{"lat":40.8666437,"lng":-73.9268712,"address2":"20+Cumming+Street,+New+York,+NY"},"address2":"20+Cumming+Street,+New+York,+NY","address":"20 Cumming Street, New York, NY","name":"UPTOWN SATURDAY NIGHT","building":"Holy Trinity Church","day":"Saturdays","startTime":"7:00 PM","endTime":"8:00 PM","meetingType":"C = Closed Discussion meeting","notes":"","access":[""]},{"location":{"lat":40.849394,"lng":-73.93841119999999,"address2":"715+West+179th+Street,+New+York,+NY"},"address2":"715+West+179th+Street,+New+York,+NY","address":"715 West 179th Street, New York, NY","name":"WASHINGTON HEIGHTS","building":"Holy Rood Church","day":"Tuesdays","startTime":"7:30 PM","endTime":"8:30 PM","meetingType":"O = Open meeting","notes":"","access":["Wheelchair access"]},{"location":{"lat":40.8555986,"lng":-73.9342618,"address2":"189th+Street+and+Bennett+Avenue,+New+York,+NY"},"address2":"189th+Street+and+Bennett+Avenue,+New+York,+NY","address":"189th Street and Bennett Avenue, New York, NY","name":"WASHINGTON HEIGHTS","building":"Cornerstone Center","day":"Thursdays","startTime":"7:30 PM","endTime":"8:30 PM","meetingType":"C = Closed Discussion meeting","notes":"","access":[""]},{"location":{"lat":40.8560587,"lng":-73.93446569999999,"address2":"178+Bennett+Avenue,+New+York,+NY"},"address2":"178+Bennett+Avenue,+New+York,+NY","address":"178 Bennett Avenue, New York, NY","name":"WHAT WE ARE LIKE NOW","building":"The Corner Stone Center","day":"Sundays","startTime":"6:00 PM","endTime":"7:00 PM","meetingType":"C = Closed Discussion meeting","notes":"","access":[""]},{"location":{"lat":40.8560587,"lng":-73.93446569999999,"address2":"178+Bennett+Avenue,+New+York,+NY"},"address2":"178+Bennett+Avenue,+New+York,+NY","address":"178 Bennett Avenue, New York, NY","name":"WOMEN'S NITE","building":"Cornerstone Center","day":"Mondays","startTime":"7:30 PM","endTime":"8:30 PM","meetingType":"BB = Big Book meeting","notes":"","access":[""]}]