[{"address2":"701+West+168th+Street,+New+York,+NY","latLong":{"lat":40.8427468,"lng":-73.94260059999999}},{"address2":"701+West+168th+Street,+New+York,+NY","latLong":{"lat":40.8427468,"lng":-73.94260059999999}},{"address2":"701+West+168th+Street,+New+York,+NY","latLong":{"lat":40.8427468,"lng":-73.94260059999999}},{"address2":"701+West+168th+Street,+New+York,+NY","latLong":{"lat":40.8427468,"lng":-73.94260059999999}},{"address2":"701+West+168th+Street,+New+York,+NY","latLong":{"lat":40.8427468,"lng":-73.94260059999999}},{"address2":"715+West+179th+Street,+New+York,+NY","latLong":{"lat":40.849394,"lng":-73.93841119999999}},{"address2":"715+West+179th+Street,+New+York,+NY","latLong":{"lat":40.849394,"lng":-73.93841119999999}},{"address2":"715+West+179th+Street,+New+York,+NY","latLong":{"lat":40.849394,"lng":-73.93841119999999}},{"address2":"715+West+179th+Street,+New+York,+NY","latLong":{"lat":40.849394,"lng":-73.93841119999999}},{"address2":"715+West+179th+Street,+New+York,+NY","latLong":{"lat":40.849394,"lng":-73.93841119999999}},{"address2":"715+West+179th+Street,+New+York,+NY","latLong":{"lat":40.849394,"lng":-73.93841119999999}},{"address2":"431+West+204th+Street,+New+York,+NY","latLong":{"lat":40.8621364,"lng":-73.9189224}},{"address2":"431+West+204th+Street,+New+York,+NY","latLong":{"lat":40.8621364,"lng":-73.9189224}},{"address2":"550+West+155th+Street,+New+York,+NY","latLong":{"lat":40.8321259,"lng":-73.9452508}},{"address2":"557+West+156th+Street,+New+York,+NY","latLong":{"lat":40.833379,"lng":-73.94459800000001}},{"address2":"557+West+156th+Street,+New+York,+NY","latLong":{"lat":40.833379,"lng":-73.94459800000001}},{"address2":"35+Thayer+Street,+New+York,+NY","latLong":{"lat":40.862594,"lng":-73.926186}},{"address2":"35+Thayer+Street,+New+York,+NY","latLong":{"lat":40.862594,"lng":-73.926186}},{"address2":"35+Thayer+Street,+New+York,+NY","latLong":{"lat":40.862594,"lng":-73.926186}},{"address2":"35+Thayer+Street,+New+York,+NY","latLong":{"lat":40.862594,"lng":-73.926186}},{"address2":"715+West+179th+Street,+New+York,+NY","latLong":{"lat":40.849394,"lng":-73.93841119999999}},{"address2":"715+West+179th+Street,+New+York,+NY","latLong":{"lat":40.849394,"lng":-73.93841119999999}},{"address2":"715+West+179th+Street,+New+York,+NY","latLong":{"lat":40.849394,"lng":-73.93841119999999}},{"address2":"715+West+179th+Street,+New+York,+NY","latLong":{"lat":40.849394,"lng":-73.93841119999999}},{"address2":"502+West+165th+Street,+New+York,+NY","latLong":{"lat":40.8380556,"lng":-73.93891789999999}},{"address2":"502+West+165th+Street,+New+York,+NY","latLong":{"lat":40.8380556,"lng":-73.93891789999999}},{"address2":"502+West+165th+Street,+New+York,+NY","latLong":{"lat":40.8380556,"lng":-73.93891789999999}},{"address2":"91+Arden+Street,+New+York,+NY","latLong":{"lat":40.8638625,"lng":-73.9280718}},{"address2":"91+Arden+Street,+New+York,+NY","latLong":{"lat":40.8638625,"lng":-73.9280718}},{"address2":"20+Cumming+Street,+New+York,+NY","latLong":{"lat":40.8666437,"lng":-73.9268712}},{"address2":"20+Cumming+Street,+New+York,+NY","latLong":{"lat":40.8666437,"lng":-73.9268712}},{"address2":"84+Vermilyea+Avenue,+New+York,+NY","latLong":{"lat":40.8660417,"lng":-73.9232711}},{"address2":"84+Vermilyea+Avenue,+New+York,+NY","latLong":{"lat":40.8660417,"lng":-73.9232711}},{"address2":"84+Vermilyea+Avenue,+New+York,+NY","latLong":{"lat":40.8660417,"lng":-73.9232711}},{"address2":"620+Isham+Street,+New+York,+NY","latLong":{"lat":40.8692105,"lng":-73.9207583}},{"address2":"2005+Amsterdam+Avenue,+New+York,+NY","latLong":{"lat":40.8342672,"lng":-73.94078800000001}},{"address2":"178+Bennett+Avenue,+New+York,+NY","latLong":{"lat":40.8560587,"lng":-73.93446569999999}},{"address2":"178+Bennett+Avenue,+New+York,+NY","latLong":{"lat":40.8560587,"lng":-73.93446569999999}},{"address2":"91+Arden+Street,+New+York,+NY","latLong":{"lat":40.8638625,"lng":-73.9280718}},{"address2":"20+Cumming+Street,+New+York,+NY","latLong":{"lat":40.8666437,"lng":-73.9268712}},{"address2":"715+West+179th+Street,+New+York,+NY","latLong":{"lat":40.849394,"lng":-73.93841119999999}},{"address2":"189th+Street+and+Bennett+Avenue,+New+York,+NY","latLong":{"lat":40.8555986,"lng":-73.9342618}},{"address2":"178+Bennett+Avenue,+New+York,+NY","latLong":{"lat":40.8560587,"lng":-73.93446569999999}},{"address2":"178+Bennett+Avenue,+New+York,+NY","latLong":{"lat":40.8560587,"lng":-73.93446569999999}}]